{"type":"FeatureCollection","features":[{"type":"Feature","properties":{"marker-color":"#7e7e7e","marker-size":"medium","marker-symbol":"circle-stroked","schooltype":"elementary","name":"Berkeley Arts Magnet at Whittier (BAM)"},"geometry":{"type":"Point","coordinates":[-122.27049350738525,37.87687741979915]}},{"type":"Feature","properties":{"marker-symbol":"circle-stroked","schooltype":"elementary","name":"Cragmont Elementary School"},"geometry":{"type":"Point","coordinates":[-122.26744651794432,37.89392276467386]}},{"type":"Feature","properties":{"marker-symbol":"circle-stroked","schooltype":"elementary","name":"Emerson Elementary School"},"geometry":{"type":"Point","coordinates":[-122.25067734718323,37.8611918792383]}},{"type":"Feature","properties":{"marker-symbol":"circle-stroked","schooltype":"elementary","name":"John Muir Elementary"},"geometry":{"type":"Point","coordinates":[-122.24508762359618,37.857159851023304]}},{"type":"Feature","properties":{"marker-symbol":"circle-stroked","schooltype":"elementary","name":"Malcolm X Elementary School"},"geometry":{"type":"Point","coordinates":[-122.27359414100647,37.85305136012689]}},{"type":"Feature","properties":{"marker-symbol":"circle-stroked","schooltype":"elementary","name":"Oxford Elementary"},"geometry":{"type":"Point","coordinates":[-122.28850454092026,37.869068944964894]}},{"type":"Feature","properties":{"marker-symbol":"circle-stroked","schooltype":"elementary","name":"Rosa Parks Elementary"},"geometry":{"type":"Point","coordinates":[-122.2946709394455,37.865274506583404]}},{"type":"Feature","properties":{"name":"Ruth Acty Elementary","schooltype":"elementary","marker-symbol":"circle-stroked"},"geometry":{"type":"Point","coordinates":[-122.28424787521361,37.878909858834824]}},{"type":"Feature","properties":{"name":"Sylvia Mendez Elementary School","schooltype":"elementary","marker-symbol":"circle-stroked"},"geometry":{"type":"Point","coordinates":[-122.26261854171752,37.85760880625333]}},{"type":"Feature","properties":{"name":"Thousand Oaks Primary School","schooltype":"elementary","marker-symbol":"circle-stroked"},"geometry":{"type":"Point","coordinates":[-122.2805893421173,37.89233948357791]}},{"type":"Feature","properties":{"name":"Washington Elementary School","schooltype":"elementary","marker-symbol":"circle-stroked"},"geometry":{"type":"Point","coordinates":[-122.272971868515,37.86630359790962]}},{"type":"Feature","properties":{"marker-color":"#7e7e7e","marker-size":"medium","marker-symbol":"square-stroked","name":"Longfellow Middle School","schooltype":"middle school"},"geometry":{"type":"Point","coordinates":[-122.27891564369202,37.85842200121729]}},{"type":"Feature","properties":{"marker-color":"#7e7e7e","marker-size":"medium","name":"Martin Luther King Jr. Middle School","schooltype":"middle school","marker-symbol":"square-stroked"},"geometry":{"type":"Point","coordinates":[-122.27758526802063,37.882356408506155]}},{"type":"Feature","properties":{"name":"Willard Middle School","schooltype":"middle school","marker-symbol":"square-stroked"},"geometry":{"type":"Point","coordinates":[-122.2580587863922,37.86048883137166]}},{"type":"Feature","properties":{"marker-color":"#7e7e7e","marker-size":"medium","marker-symbol":"triangle-stroked","name":"Berkeley High School","schooltype":"high school"},"geometry":{"type":"Point","coordinates":[-122.27136254310606,37.86711246207451]}},{"type":"Feature","properties":{"name":"Berkeley Technology Academy","schooltype":"high school","marker-symbol":"triangle-stroked"},"geometry":{"type":"Point","coordinates":[-122.27092266082762,37.859468129460964]}},{"type":"Feature","properties":{"marker-color":"#7e7e7e","marker-size":"medium","marker-symbol":"school","name":"Berkeley City College","schooltype":"higher education"},"geometry":{"type":"Point","coordinates":[-122.26968348026276,37.8697930845506]}},{"type":"Feature","properties":{"marker-symbol":"school","schooltype":"higher education","name":"UC Berkeley"},"geometry":{"type":"Point","coordinates":[-122.26062297821045,37.87197392978305]}}]}